,City,Lat,Lng,Max Temp,Humidity,Cloudiness,Wind Speed,Country,Date
0,New Norfolk,-42.7826,147.0587,280.87,72,100,0.67,AU,1631646080
1,Mar del Plata,-38.0023,-57.5575,283.97,58,100,7.25,AR,1631646126
2,Hasaki,35.7333,140.8333,292.37,92,100,3.18,JP,1631646129
3,Ponta do Sol,32.6667,-17.1,298.55,69,40,4.7,PT,1631646200
4,Mmabatho,-25.85,25.6333,293.75,17,0,3.84,ZA,1631646275
5,Jacmel,18.2342,-72.5347,304.06,61,86,2.97,HT,1631646275
6,Provideniya,64.3833,-173.3,278.19,79,100,3.66,RU,1631646123
7,Punta Arenas,-53.15,-70.9167,276.75,61,33,13.76,CL,1631646081
8,Longyearbyen,78.2186,15.6401,274.06,93,75,1.03,SJ,1631646215
9,Puerto Varas,-41.3195,-72.9854,283.27,81,75,3.09,CL,1631646276
10,Puerto Ayora,-0.7393,-90.3518,295.68,85,71,2.68,EC,1631646121
11,Pisco,-13.7,-76.2167,291.49,82,13,2.98,PE,1631646092
12,Plettenberg Bay,-34.0527,23.3716,286.96,86,92,4.43,ZA,1631646276
13,Los Llanos de Aridane,28.6585,-17.9182,297.01,84,20,3.6,ES,1631646276
14,Lavrentiya,65.5833,-171.0,277.87,84,100,4.44,RU,1631646154
15,Kuzino,57.0224,59.4412,285.97,90,100,3.95,RU,1631646277
16,Hilo,19.7297,-155.09,300.53,78,16,0.89,US,1631646091
17,Riohacha,11.5444,-72.9072,305.03,60,100,6.34,CO,1631646249
18,Port Alfred,-33.5906,26.891,289.25,84,7,7.42,ZA,1631646105
19,Pitimbu,-7.4706,-34.8086,301.48,74,3,7.14,BR,1631646285
20,Butaritari,3.0707,172.7902,301.19,76,100,6.39,KI,1631646137
21,Bengkulu,-3.8004,102.2655,297.27,86,99,2.08,ID,1631646167
22,Tuktoyaktuk,69.4541,-133.0374,279.88,70,100,4.06,CA,1631646132
23,Albany,42.6001,-73.9662,299.63,71,81,3.25,US,1631645826
24,Kahului,20.8947,-156.47,297.58,88,7,4.43,US,1631646122
25,Tasiilaq,65.6145,-37.6368,279.24,77,98,1.23,GL,1631646123
26,Nikolskoye,59.7035,30.7861,283.09,70,100,4.67,RU,1631646166
27,Bluff,-46.6,168.3333,273.04,83,64,4.62,NZ,1631646081
28,Half Moon Bay,37.4636,-122.4286,305.83,68,1,3.09,US,1631646086
29,Dwārka,22.2394,68.9678,300.32,90,100,5.87,IN,1631646287
30,Rikitea,-23.1203,-134.9692,296.24,77,100,4.51,PF,1631646057
31,Ushuaia,-54.8,-68.3,277.94,65,75,11.83,AR,1631645847
32,Mataura,-46.1927,168.8643,272.86,98,9,1.08,NZ,1631646090
33,Jamestown,42.097,-79.2353,300.98,64,100,5.81,US,1631646024
34,George Town,5.4112,100.3354,299.76,84,20,0.0,MY,1631646106
35,Ribeira Grande,38.5167,-28.7,296.37,64,20,2.06,PT,1631646090
36,Pandan,14.0453,124.1694,300.03,85,95,2.19,PH,1631646288
37,Natal,-5.795,-35.2094,300.87,69,24,6.67,BR,1631646059
38,Smithers,54.7804,-127.1743,286.33,88,75,0.0,CA,1631646204
39,Chapais,49.7834,-74.8492,285.26,52,100,4.23,CA,1631646288
40,Port Elizabeth,-33.918,25.5701,288.31,88,75,7.2,ZA,1631646061
41,Yar-Sale,66.8333,70.8333,279.57,95,100,3.97,RU,1631646066
42,Aksu,41.1231,80.2644,294.59,46,100,3.6,CN,1631646289
43,Dunedin,-45.8742,170.5036,276.37,90,6,0.89,NZ,1631646289
44,Hobart,-42.8794,147.3294,281.07,90,90,3.09,AU,1631645901
45,Ouésso,1.6136,16.0517,296.98,81,15,0.47,CG,1631646136
46,Cherskiy,68.75,161.3,277.86,82,100,0.66,RU,1631646152
47,La Ronge,55.1001,-105.2842,289.43,47,6,2.48,CA,1631646290
48,Bontang,0.1333,117.5,297.84,90,100,1.96,ID,1631646290
49,Tiarei,-17.5333,-149.3333,300.16,74,62,10.05,PF,1631646290
50,Broome,42.2506,-75.833,301.74,64,75,1.34,US,1631646291
51,Vardø,70.3705,31.1107,279.14,81,75,4.63,NO,1631646189
52,Fergus Falls,46.283,-96.0776,295.14,48,40,2.68,US,1631646291
53,Katsuura,35.1333,140.3,294.21,93,100,6.03,JP,1631646232
54,Mitsamiouli,-11.3847,43.2844,298.42,76,47,1.94,KM,1631646296
55,Vengurla,15.8667,73.6333,298.75,86,93,3.54,IN,1631646297
56,Oranjemund,-28.55,16.4333,285.97,78,71,5.66,NA,1631646297
57,Talavera,15.6167,120.9333,297.19,91,7,1.03,PH,1631646297
58,Port Hardy,50.6996,-127.4199,287.25,94,75,2.06,CA,1631646155
59,Airai,-8.9266,125.4092,288.45,75,25,1.14,TL,1631646298
60,Adilabad,19.6667,78.5333,298.53,86,100,5.28,IN,1631646298
61,Castro,-24.7911,-50.0119,294.99,71,100,4.34,BR,1631646060
62,Bājitpur,24.2167,90.95,301.17,90,100,1.89,BD,1631646299
63,Yerbogachën,61.2767,108.0108,275.44,88,23,2.28,RU,1631646061
64,Carnarvon,-24.8667,113.6333,290.91,71,0,6.74,AU,1631646105
65,Ngunguru,-35.6167,174.5,288.8,93,100,3.77,NZ,1631646299
66,Cayenne,4.9333,-52.3333,305.17,75,20,2.24,GF,1631646093
67,Yulin,22.6333,110.15,298.1,93,97,0.64,CN,1631646300
68,Valparaíso,-33.0393,-71.6273,289.61,52,0,9.75,CL,1631646021
69,Ahipara,-35.1667,173.1667,287.47,94,99,2.75,NZ,1631646150
70,Souillac,-20.5167,57.5167,293.36,77,20,3.6,MU,1631646300
71,Sitka,57.0531,-135.33,284.93,73,26,2.62,US,1631645975
72,Chokurdakh,70.6333,147.9167,274.81,85,100,4.5,RU,1631646138
73,Hermanus,-34.4187,19.2345,286.43,71,100,3.38,ZA,1631646059
74,Talnakh,69.4865,88.3972,278.7,88,100,1.63,RU,1631646301
75,Waipawa,-41.4122,175.5153,279.5,75,45,1.25,NZ,1631646301
76,Severo-Kuril'sk,50.6789,156.125,283.28,86,100,3.79,RU,1631646139
77,Sola,-13.8833,167.55,299.55,75,9,8.19,VU,1631646213
78,Kapaa,22.0752,-159.319,300.08,59,13,2.68,US,1631646058
79,Saint George,37.1041,-113.5841,310.41,17,0,0.89,US,1631646010
80,Vaini,-21.2,-175.2,296.62,85,0,4.36,TO,1631646156
81,Cedar City,37.6775,-113.0619,302.26,10,0,4.0,US,1631646065
82,Bredasdorp,-34.5322,20.0403,283.86,81,100,2.67,ZA,1631646062
83,Buala,-8.145,159.5921,299.49,79,100,3.06,SB,1631646302
84,Pacific Grove,36.6177,-121.9166,301.02,85,32,1.34,US,1631645988
85,Bubaque,11.2833,-15.8333,300.62,75,65,2.77,GW,1631646315
86,Izhma,65.0083,53.9113,275.33,92,65,3.18,RU,1631646316
87,Atuona,-9.8,-139.0333,298.63,68,1,8.58,PF,1631646226
88,Acapulco de Juárez,16.8634,-99.8901,298.05,94,90,4.12,MX,1631646173
89,Sampit,-2.5333,112.95,295.8,99,100,1.09,ID,1631646317
90,Najrān,17.4924,44.1277,299.68,16,1,2.03,SA,1631646317
91,Saint Paul Harbor,57.79,-152.4072,281.88,71,90,3.09,US,1631645786
92,Codrington,-38.2667,141.9667,280.37,72,100,1.74,AU,1631646215
93,Zhezkazgan,47.8043,67.7144,289.92,16,92,3.68,KZ,1631646318
94,Cidreira,-30.1811,-50.2056,292.14,88,100,5.14,BR,1631646131
95,Evensk,61.95,159.2333,278.83,70,30,3.22,RU,1631646319
96,San Borja,-14.8167,-66.85,310.7,27,89,4.2,BO,1631646319
97,Kinablangan,7.6947,126.5503,298.97,83,79,1.28,PH,1631646319
98,Kilindoni,-7.9139,39.6668,297.95,79,7,7.18,TZ,1631646319
99,Kiryat Gat,31.61,34.7642,299.53,100,0,2.73,IL,1631646320
100,Seybaplaya,19.65,-90.6667,305.85,55,100,3.34,MX,1631646321
101,Pevek,69.7008,170.3133,273.49,99,100,1.32,RU,1631646229
102,Kaitangata,-46.2817,169.8464,273.24,91,16,2.67,NZ,1631646322
103,Busselton,-33.65,115.3333,279.87,82,95,2.39,AU,1631646124
104,Shelburne,44.0787,-80.2041,298.56,46,100,9.34,CA,1631646338
105,Barra Patuca,15.8,-84.2833,303.05,66,68,4.45,HN,1631646339
106,Uruçuí,-7.2294,-44.5561,312.2,16,8,3.55,BR,1631646339
107,Qaanaaq,77.484,-69.3632,269.46,89,95,1.61,GL,1631646080
108,Lynden,48.9465,-122.4521,289.12,88,90,0.45,US,1631646347
109,Avarua,-21.2078,-159.775,297.18,83,40,5.66,CK,1631646091
110,Vila Velha,-20.3297,-40.2925,301.12,69,0,9.26,BR,1631646270
111,Mount Isa,-20.7333,139.5,290.02,23,9,1.54,AU,1631646230
112,San Angelo,31.4638,-100.437,304.5,54,1,0.89,US,1631646228
113,Sorata,-15.7667,-68.6333,286.02,70,79,5.0,BO,1631646348
114,Tezu,27.9167,96.1667,298.29,73,0,1.9,IN,1631646126
115,Chulym,55.0997,80.9572,280.26,96,100,3.19,RU,1631646348
116,Unguía,8.0434,-77.0945,301.7,86,93,0.29,CO,1631646349
117,Fort Nelson,58.8053,-122.7002,284.92,62,90,4.12,CA,1631646202
118,San Cristobal,7.7669,-72.225,302.25,39,4,3.51,VE,1631645894
119,Charter Township of Clinton,42.587,-82.9199,305.33,61,75,0.89,US,1631646349
120,Almaznyy,48.0448,40.045,292.23,41,96,3.07,RU,1631646349
121,Arraial do Cabo,-22.9661,-42.0278,296.97,80,76,10.04,BR,1631646133
122,Viedma,-40.8135,-62.9967,290.02,24,4,5.54,AR,1631646350
123,Zyryanka,65.75,150.85,280.6,67,100,3.17,RU,1631646223
124,Ilulissat,69.2167,-51.1,271.64,79,63,1.67,GL,1631646350
125,Beringovskiy,63.05,179.3167,276.87,65,100,5.46,RU,1631646350
126,Athens,37.9795,23.7162,299.96,38,0,0.45,GR,1631645618
127,Matamoros,25.5333,-103.25,306.21,34,75,3.6,MX,1631646351
128,Bangkalan,-7.0455,112.7351,298.89,81,100,2.12,ID,1631646351
129,Cabo San Lucas,22.8909,-109.9124,304.92,72,13,2.15,MX,1631645968
130,Mossamedes,-15.1961,12.1522,289.46,86,55,3.59,AO,1631646231
131,Laas,46.6166,10.7002,292.1,90,100,1.34,IT,1631646354
132,Kwang Binh,17.4833,106.6,300.02,90,100,1.89,VN,1631646132
133,Bilibino,68.0546,166.4372,274.23,98,100,0.39,RU,1631646354
134,Saint-Philippe,-21.3585,55.7679,293.92,75,32,4.96,RE,1631646165
135,Nautla,20.2167,-96.7833,302.93,72,98,2.92,MX,1631646355
136,Capão da Canoa,-29.7456,-50.0097,291.52,95,100,5.79,BR,1631646356
137,Olafsvik,64.8945,-23.7142,282.94,79,96,12.32,IS,1631646216
138,Ayan,56.45,138.1667,287.31,61,100,2.8,RU,1631645912
139,Veţel,45.9,22.8167,290.95,64,8,0.38,RO,1631646356
140,Necochea,-38.5473,-58.7368,285.95,57,17,5.73,AR,1631646011
141,Snihurivka,47.0758,32.8052,293.09,56,17,3.62,UA,1631646357
142,Nabire,-3.3667,135.4833,296.7,92,99,1.29,ID,1631646357
143,Cape Town,-33.9258,18.4232,286.55,73,75,1.34,ZA,1631645925
144,Sakakah,29.9697,40.2064,303.26,20,0,3.43,SA,1631646358
145,Yellowknife,62.456,-114.3525,283.44,100,90,4.63,CA,1631646087
146,Verkhnyaya Balkariya,43.1279,43.4573,286.95,80,0,3.5,RU,1631646358
147,Ruska Poliana,49.417,31.9201,288.88,74,36,3.4,UA,1631646358
148,Torbay,47.6666,-52.7314,293.57,63,80,6.02,CA,1631646134
149,Okhotsk,59.3833,143.3,283.42,77,99,1.39,RU,1631646359
150,Tynset,62.2759,10.7824,277.94,76,64,0.85,NO,1631646359
151,Khani,41.9563,42.9566,289.91,95,99,0.54,GE,1631646359
152,Clyde River,70.4692,-68.5914,273.7,55,64,1.04,CA,1631646360
153,Touros,-5.1989,-35.4608,300.69,72,5,7.45,BR,1631646105
154,Saskylakh,71.9167,114.0833,278.83,85,100,3.8,RU,1631646360
155,Ola,59.5833,151.2833,280.31,67,19,1.41,RU,1631646236
156,Iqaluit,63.7506,-68.5145,276.52,54,88,5.47,CA,1631646361
157,Namatanai,-3.6667,152.4333,298.87,85,100,4.81,PG,1631646361
158,Dicabisagan,17.0818,122.4157,298.91,87,7,0.84,PH,1631646104
159,Hithadhoo,-0.6,73.0833,301.97,71,5,4.44,MV,1631646167
160,Port Blair,11.6667,92.75,300.07,86,100,4.34,IN,1631646133
161,Maniitsoq,65.4167,-52.9,276.91,56,0,4.99,GL,1631646362
162,Makkah al Mukarramah,21.4267,39.8261,304.94,32,8,2.14,SA,1631645915
163,Puerto del Rosario,28.5004,-13.8627,299.97,73,20,2.06,ES,1631646362
164,Inírida,3.8653,-67.9239,307.16,44,96,1.02,CO,1631646363
165,Opuwo,-18.0607,13.84,295.77,27,3,3.01,NA,1631646363
166,Balkanabat,39.5108,54.3671,299.68,55,0,2.56,TM,1631646364
167,Tura,25.5198,90.2201,296.18,97,100,1.32,IN,1631646076
168,Portland,45.5234,-122.6762,298.4,55,5,0.45,US,1631645817
169,Paragominas,-2.9667,-47.4833,306.58,38,55,2.25,BR,1631646364
170,Shingū,33.7333,135.9833,295.32,96,100,2.26,JP,1631646365
171,Nizwá,22.9333,57.5333,305.13,30,100,2.12,OM,1631646365
172,Kalispell,48.1958,-114.3129,292.75,52,1,4.02,US,1631646258
173,Vilcún,-38.65,-72.2333,283.56,52,84,2.39,CL,1631646366
174,Lorengau,-2.0226,147.2712,299.33,83,98,2.86,PG,1631646077
175,Yeppoon,-23.1333,150.7333,283.03,46,5,2.97,AU,1631646079
176,Paamiut,61.994,-49.6678,276.46,68,37,7.97,GL,1631646366
177,Fairbanks,64.8378,-147.7164,280.71,78,43,1.06,US,1631646169
178,Shetpe,44.1667,52.1167,296.82,25,0,1.28,KZ,1631646367
179,Salalah,17.0151,54.0924,300.2,89,75,2.57,OM,1631646199
180,Verkhnyaya Inta,65.9811,60.3094,277.56,89,99,1.95,RU,1631646368
181,East London,-33.0153,27.9116,291.19,77,99,7.26,ZA,1631646075
182,Devils Lake,48.1128,-98.8651,294.14,43,1,7.6,US,1631646368
183,Upata,8.0086,-62.3989,306.59,48,33,2.52,VE,1631646368
184,Lebu,-37.6167,-73.65,284.17,56,18,4.21,CL,1631646075
185,Hambantota,6.1241,81.1185,300.34,94,0,4.63,LK,1631646369
186,Fortuna,40.5982,-124.1573,292.66,66,1,2.57,US,1631646292
187,Usinsk,65.9939,57.5281,275.59,93,7,4.76,RU,1631646369
188,La Serena,-29.9078,-71.2542,288.88,67,0,5.66,CL,1631646370
189,Atbasar,51.8,68.3333,286.78,38,85,3.98,KZ,1631646370
190,Deloraine,-41.5333,146.6667,279.65,41,84,0.51,AU,1631646370
191,Gaspar,-26.9314,-48.9589,295.68,46,100,1.16,BR,1631646371
192,Krasnovishersk,60.4078,57.082,280.68,99,100,1.63,RU,1631646371
193,Pangnirtung,66.1451,-65.7125,275.76,55,21,3.52,CA,1631646171
194,Kumul,42.8,93.45,296.02,21,0,2.69,CN,1631646372
195,Thompson,55.7435,-97.8558,284.24,71,75,5.14,CA,1631646093
196,Kifrī,34.6959,44.9661,303.9,19,0,4.88,IQ,1631646372
197,Sechura,-5.5569,-80.8222,298.87,55,13,6.33,PE,1631646373
198,Chippewa Falls,44.9369,-91.3929,292.99,76,90,4.63,US,1631646374
199,Mocuba,-16.8392,36.9856,299.09,50,7,3.91,MZ,1631646374
200,Senador José Porfírio,-2.5908,-51.9542,307.63,38,44,1.02,BR,1631646375
201,Rincon,32.296,-81.2354,305.1,53,40,2.06,US,1631646376
202,Mackay,-21.15,149.2,288.73,44,75,7.34,AU,1631646167
203,Salinópolis,-0.6136,-47.3561,301.91,65,4,5.45,BR,1631646154
204,Mangai,-4.05,19.5333,295.35,87,2,1.09,CD,1631646376
205,Beyneu,45.3167,55.2,297.46,23,81,8.0,KZ,1631646377
206,Ardmore,34.1743,-97.1436,305.29,50,75,1.79,US,1631646377
207,Porto-Novo,6.4965,2.6036,298.43,83,99,3.1,BJ,1631646378
208,Wattegama,6.7989,81.4808,299.66,79,35,3.28,LK,1631646378
209,Barcelos,41.5388,-8.6151,293.31,87,100,1.02,PT,1631646379
210,Nanortalik,60.1432,-45.2371,278.3,67,21,3.49,GL,1631646150
211,Mozelos,41.8677,-8.3978,293.94,88,100,0.52,PT,1631646379
212,Bandarbeyla,9.4942,50.8122,298.52,81,76,11.48,SO,1631646380
213,Dumai,1.6833,101.45,296.75,95,100,0.72,ID,1631646380
214,Padang,-0.9492,100.3543,298.81,83,80,1.62,ID,1631646090
215,Marsá Maţrūḩ,31.3525,27.2453,298.36,61,0,6.65,EG,1631646381
216,Cabedelo,-6.9811,-34.8339,301.52,74,5,7.78,BR,1631646381
217,Uşak Province,38.5,29.4167,290.58,60,100,2.08,TR,1631646382
218,Sulangan,11.1373,123.7228,301.2,76,78,2.79,PH,1631646382
219,Mezen',65.8522,44.24,276.63,80,14,4.29,RU,1631646383
220,Sinop Province,41.7711,34.8709,287.39,92,71,0.66,TR,1631646384
221,Naze,28.3667,129.4833,299.42,84,100,7.27,JP,1631646148
222,Waingapu,-9.6567,120.2641,298.0,83,17,1.87,ID,1631646384
223,Todos Santos,23.45,-110.2167,306.48,77,1,4.92,MX,1631646384
224,Mount Gambier,-37.8333,140.7667,279.83,72,90,1.43,AU,1631646385
225,Poum,-20.2333,164.0167,296.92,84,100,8.22,NC,1631646385
226,Elda,38.4778,-0.7916,297.99,55,100,1.75,ES,1631646386
227,Taltal,-25.4,-70.4833,289.77,66,73,3.69,CL,1631646386
228,Mahébourg,-20.4081,57.7,293.31,77,20,3.6,MU,1631646126
229,Gigmoto,13.7796,124.39,300.25,84,98,1.9,PH,1631646127
230,Khatanga,71.9667,102.5,278.68,83,19,5.36,RU,1631646081
231,Faanui,-16.4833,-151.75,298.83,75,8,7.39,PF,1631646108
232,Aklavik,68.2191,-135.0107,280.55,69,53,3.41,CA,1631646133
233,Kitimat,54.0524,-128.6534,286.99,71,100,1.34,CA,1631646387
234,Dikson,73.5069,80.5464,278.18,88,91,5.88,RU,1631646220
235,Lātehār,23.75,84.5,296.82,94,100,3.05,IN,1631646388
236,Dhidhdhoo,6.8833,73.1,301.12,78,59,7.55,MV,1631646388
237,Labuhan,-6.8844,112.2051,299.04,77,95,2.2,ID,1631646132
238,Tagusao,9.1924,117.8141,299.37,82,98,2.01,PH,1631646389
239,Bethel,41.3712,-73.414,300.04,68,100,0.45,US,1631646123
240,Esperance,-33.8667,121.9,285.87,70,3,8.18,AU,1631646078
241,São Filipe,14.8961,-24.4956,299.98,79,100,1.89,CV,1631646138
242,Norman Wells,65.282,-126.8329,281.8,83,100,0.9,CA,1631646218
243,Antofagasta,-23.65,-70.4,288.75,71,100,3.82,CL,1631646389
244,Lesnoy,57.6198,63.0784,286.55,94,100,4.25,RU,1631646390
245,Saint-Joseph,-21.3667,55.6167,293.36,77,34,4.14,RE,1631646390
246,Teya,60.3778,92.6267,276.86,95,100,1.08,RU,1631646390
247,Port Lincoln,-34.7333,135.8667,284.24,73,5,4.38,AU,1631646232
248,Gaya,24.7833,85.0,297.96,94,100,5.84,IN,1631646391
249,Xiaolingwei,32.0333,118.85,293.29,88,100,2.48,CN,1631646391
250,Henties Bay,-22.116,14.2845,285.85,81,0,5.81,NA,1631646238
251,Lompoc,34.6391,-120.4579,301.05,77,1,5.14,US,1631646129
252,Lagoa,39.05,-27.9833,293.48,74,15,3.18,PT,1631646103
253,Klaksvík,62.2266,-6.589,284.66,84,100,1.74,FO,1631646107
254,Winnemucca,40.973,-117.7357,300.18,16,1,2.06,US,1631646392
255,Leningradskiy,69.3833,178.4167,273.65,98,100,6.42,RU,1631646392
256,Vic,41.9271,2.2497,296.99,78,100,0.4,ES,1631646393
257,Guerrero Negro,27.9769,-114.0611,300.11,50,0,6.3,MX,1631646393
258,Copiapó,-27.3667,-70.3333,286.98,27,0,4.19,CL,1631646393
259,Mbekenyera,-10.0,38.9833,293.86,85,87,3.4,TZ,1631646394
260,Warren,39.4334,-84.1666,305.32,56,1,0.45,US,1631646384
261,Marolambo,-20.05,48.1167,289.43,99,29,0.98,MG,1631646394
262,Grand Gaube,-20.0064,57.6608,293.37,75,96,2.24,MU,1631646229
263,Nagapattinam,10.7667,79.8333,301.4,81,100,6.52,IN,1631646395
264,Sai Buri,6.7013,101.6168,298.13,83,100,2.2,TH,1631646395
265,Luancheng,37.8792,114.6517,293.23,71,100,1.52,CN,1631646395
266,Korla,41.7597,86.1469,294.83,30,3,1.52,CN,1631646396
267,Zhangaözen,43.3,52.8,297.13,20,0,4.74,KZ,1631646403
268,Meulaboh,4.1363,96.1285,298.07,80,100,0.99,ID,1631646235
269,Barrow,71.2906,-156.7887,276.16,93,90,5.14,US,1631646077
270,Keshod,21.3,70.25,298.71,96,100,6.13,IN,1631646374
271,Larsnes,62.2028,5.5773,285.71,84,92,0.88,NO,1631646404
272,Goundam,16.4145,-3.6708,309.45,26,96,5.11,ML,1631646405
273,Bambous Virieux,-20.3428,57.7575,293.29,77,20,3.6,MU,1631646121
274,San Quintín,30.4833,-115.95,297.86,62,0,5.43,MX,1631646405
275,São José da Coroa Grande,-8.8978,-35.1478,299.43,75,20,4.86,BR,1631646405
276,Tateyama,34.9833,139.8667,294.16,91,100,6.99,JP,1631646406
277,Geraldton,-28.7667,114.6,282.38,93,75,3.6,AU,1631646406
278,Kawalu,-7.3817,108.2082,294.61,97,100,0.26,ID,1631646406
279,Ancud,-41.8697,-73.8203,283.39,82,100,6.55,CL,1631646407
280,Vestmannaeyjar,63.4427,-20.2734,283.82,72,100,8.06,IS,1631646407
281,Moyale,3.5167,39.0584,297.47,43,100,3.02,KE,1631646407
282,Sisimiut,66.9395,-53.6735,276.39,67,77,4.61,GL,1631646408
283,Tomatlán,19.9333,-105.25,298.77,93,100,0.56,MX,1631646408
284,Bourail,-21.5667,165.4833,294.78,85,100,2.98,NC,1631646408
285,Nola,40.922,14.5329,297.95,58,98,1.48,IT,1631646409
286,Lyngseidet,69.5763,20.2189,279.2,95,100,1.18,NO,1631646409
287,Nouadhibou,20.931,-17.0347,297.0,76,4,11.7,MR,1631646200
288,Deputatsky,69.3,139.9,278.34,87,99,2.52,RU,1631646409
289,Yumen,40.2833,97.2,291.37,40,100,1.22,CN,1631646188
290,Bathsheba,13.2167,-59.5167,302.53,72,12,5.62,BB,1631646068
291,Vanavara,60.34,102.2797,275.15,93,70,1.89,RU,1631646066
292,Hamilton,39.1834,-84.5333,305.51,58,5,0.45,US,1631645930
293,Morondava,-20.2833,44.2833,296.9,79,0,5.86,MG,1631646410
294,Harper,4.375,-7.7169,298.35,87,99,4.04,LR,1631646410
295,Tornio,65.8481,24.1466,277.16,92,100,6.04,FI,1631646061
296,Mackenzie,55.2999,-123.1698,283.27,93,90,5.14,CA,1631646411
297,San Andrés,12.5847,-81.7006,303.16,74,75,3.09,CO,1631646221
298,Berbera,10.4396,45.0143,305.54,57,10,2.59,SO,1631646411
299,Mahon,39.8885,4.2658,299.46,73,0,6.69,ES,1631646411
300,Hofn,64.2539,-15.2082,283.63,82,97,7.86,IS,1631646170
301,Porbandar,21.6422,69.6093,299.87,91,100,7.34,IN,1631646412
302,Keuruu,62.2667,24.7,279.71,80,49,4.65,FI,1631646412
303,Marsaxlokk,35.8419,14.5431,298.75,73,20,2.57,MT,1631646412
304,Nhulunbuy,-12.2333,136.7667,297.49,94,97,0.51,AU,1631646222
305,Peniche,39.3558,-9.3811,294.86,91,98,2.01,PT,1631646413
306,Margate,51.3813,1.3862,290.99,91,55,2.65,GB,1631646413
307,San Patricio,28.017,-97.5169,306.38,51,95,4.54,US,1631646213
308,Balkhash,46.844,74.9804,289.73,28,54,4.51,KZ,1631646414
309,Santa Cruz de La Palma,28.6835,-17.7642,299.23,65,20,3.6,ES,1631646414
310,Tilichiki,60.4667,166.1,272.17,85,16,3.35,RU,1631646414
311,Tiksi,71.6872,128.8694,277.82,97,100,3.99,RU,1631646218
312,San Miguel de Tucumán,-26.8241,-65.2226,294.15,28,6,2.06,AR,1631646415
313,Vostok,46.4856,135.8833,277.25,76,98,0.73,RU,1631646415
314,Râmnicelu,45.2833,27.5333,295.37,46,78,2.55,RO,1631646415
315,Barrhead,55.7992,-4.3929,289.18,93,100,1.54,GB,1631646415
316,Kaeo,-35.1,173.7833,288.89,97,100,1.77,NZ,1631646416
317,Kabare,-2.4683,28.8242,294.22,63,100,0.89,CD,1631646416
318,Quatre Cocos,-20.2078,57.7625,293.21,74,42,5.59,MU,1631646416
319,Kavieng,-2.5744,150.7967,299.87,78,87,2.46,PG,1631646127
320,Sorso,40.8,8.5772,295.42,59,100,2.0,IT,1631646417
321,Jumla,29.2747,82.1838,287.49,92,14,1.67,NP,1631646079
322,Hong Kong,22.2855,114.1577,302.22,85,100,3.46,HK,1631645926
323,Berlevåg,70.8578,29.0864,277.04,77,100,3.62,NO,1631646220
324,Severodvinsk,64.5635,39.8302,282.21,73,82,6.77,RU,1631646418
325,Fairview,40.8126,-73.999,301.77,63,100,2.24,US,1631646034
326,Agüimes,27.9054,-15.4461,297.5,72,40,7.72,ES,1631646418
327,Nuuk,64.1835,-51.7216,277.49,45,20,6.69,GL,1631646093
328,North Vernon,39.0062,-85.6236,304.55,61,2,6.59,US,1631646418
329,Taman',45.2117,36.7161,288.33,70,14,1.81,RU,1631646419
330,Neuquén,-38.9516,-68.0591,289.2,22,0,8.77,AR,1631646419
331,Linqiong,30.4159,103.4609,295.44,90,100,0.63,CN,1631646419
332,Caceres,39.522,-6.3748,289.71,75,100,3.86,ES,1631646420
333,Chumikan,54.7183,135.315,284.14,84,3,6.35,RU,1631646420
334,Xining,36.6167,101.7667,284.83,97,100,1.07,CN,1631646420
335,Omsukchan,62.5333,155.8,275.31,83,20,0.39,RU,1631646421
336,Salinas,36.6777,-121.6555,300.69,67,1,5.14,US,1631646244
337,Comal,29.8169,-98.3003,306.29,54,52,0.45,US,1631646421
338,Iquique,-20.2208,-70.1431,290.45,69,72,2.82,CL,1631646152
339,Morgan City,29.6994,-91.2068,298.15,100,90,4.63,US,1631646421
340,Ciudad del Carmen,18.6333,-91.8333,305.17,62,40,7.2,MX,1631646422
341,Roald,62.5833,6.1333,286.18,87,75,2.06,NO,1631646422
342,Borovoy,55.4333,86.0833,275.75,93,100,2.0,RU,1631646422
343,Pendleton,45.6721,-118.7886,298.17,31,1,0.45,US,1631646423
344,Songjianghe,42.1859,127.479,279.52,94,22,1.28,CN,1631646423
345,Sault Ste. Marie,46.5168,-84.3333,295.31,73,90,7.2,CA,1631646424
346,Kyshtovka,56.555,76.6271,279.93,98,100,3.75,RU,1631646424
347,Brae,60.3964,-1.353,286.1,94,5,3.57,GB,1631646190
348,Ucluelet,48.9329,-125.5528,287.62,96,100,4.77,CA,1631646169
349,Plouzané,48.3833,-4.6167,292.2,85,0,2.06,FR,1631646425
350,Coquimbo,-29.9533,-71.3436,289.0,67,0,5.66,CL,1631646425
351,Lata,40.1629,-8.3327,293.19,96,100,0.36,PT,1631646165
352,Tequisquiapan,20.5167,-99.8667,296.01,53,63,0.81,MX,1631646426
353,Naryan-Mar,67.6713,53.087,275.66,94,14,3.62,RU,1631646426
354,Yenagoa,4.9247,6.2642,297.68,86,87,1.96,NG,1631646427
355,Abu Kamal,34.4506,40.9171,302.57,24,0,2.41,SY,1631646427
356,Anloga,5.7947,0.8973,298.46,88,37,6.17,GH,1631646428
357,Srednekolymsk,67.45,153.6833,282.23,69,100,2.62,RU,1631646076
358,Nichinan,31.6,131.3667,296.91,95,100,3.64,JP,1631646428
359,Kankan,10.3854,-9.3057,299.15,79,100,1.18,GN,1631646429
360,Adré,13.4667,22.2,296.4,75,100,3.61,TD,1631646429
361,Bairiki Village,1.3292,172.9752,301.15,78,75,5.14,KI,1631646430
362,Trincomalee,8.5711,81.2335,301.19,74,100,7.41,LK,1631646430
363,Rabo de Peixe,37.8,-25.5833,295.88,68,20,5.66,PT,1631646430
364,Burnie,-41.0667,145.9167,279.09,85,9,2.14,AU,1631646431
365,Aspindza,41.5739,43.2483,288.56,89,82,0.35,GE,1631646433
366,Biltine,14.5333,20.9167,301.04,61,46,2.67,TD,1631646434
367,Yima,34.7381,111.8839,292.97,89,4,2.32,CN,1631646434
368,Kalmunai,7.4167,81.8167,301.26,78,100,1.64,LK,1631646434
369,Ontario,34.0633,-117.6509,311.34,30,1,1.34,US,1631646160
370,San Felipe,10.3399,-68.7425,305.24,50,92,1.96,VE,1631646435
371,Karratha,-20.7377,116.8463,293.44,65,5,4.02,AU,1631646127
372,Rovaniemi,66.5,25.7167,277.82,93,90,3.6,FI,1631646435
373,Noshiro,40.2039,140.0242,287.47,85,10,2.71,JP,1631646436
374,Mendoza,-32.8908,-68.8272,289.08,24,0,3.43,AR,1631646436
375,Conceição do Araguaia,-8.2578,-49.2647,312.87,14,99,2.71,BR,1631646436
376,Santa Luzia,-19.7697,-43.8514,306.65,13,15,1.6,BR,1631646437
377,Upernavik,72.7868,-56.1549,270.62,71,16,4.64,GL,1631646151
378,Muzaffarabad,34.37,73.4711,294.96,73,0,2.06,PK,1631646438
379,Luján,-34.5703,-59.105,292.49,31,5,2.68,AR,1631646438
380,Tupiza,-21.45,-65.7167,295.01,9,98,11.75,BO,1631646438
381,Lakes Entrance,-37.8811,147.981,278.24,90,57,2.22,AU,1631646438
382,Chepareria,1.3077,35.2039,290.88,77,95,1.56,KE,1631646439
383,Kidal,18.4411,1.4078,309.85,15,6,3.73,ML,1631646440
384,Loandjili,-4.7561,11.8578,297.59,83,6,3.92,CG,1631646440
385,Zabaykal'sk,49.6333,117.3167,284.15,78,100,2.48,RU,1631646440
386,Kuusamo,65.9667,29.1833,279.17,75,75,2.57,FI,1631646442
387,Lishui,28.4604,119.9103,295.43,96,99,0.98,CN,1631646442
388,Severobaykal'sk,55.65,109.3167,279.38,79,47,3.5,RU,1631646442
389,Havøysund,70.9963,24.6622,279.28,76,100,2.3,NO,1631646443
390,Atambua,-9.1061,124.8925,295.76,84,64,1.69,ID,1631646443
391,Auki,-8.7676,160.7034,297.66,89,100,2.31,SB,1631646164
392,Gazojak,41.1875,61.4036,295.91,11,0,3.83,TM,1631646444
393,Tommot,58.9564,126.2925,280.78,93,100,1.6,RU,1631646444
394,Hualmay,-11.0964,-77.6139,292.15,71,30,4.28,PE,1631646445
395,Belmonte,-15.8631,-38.8828,299.43,67,1,4.31,BR,1631646445
396,Haines Junction,60.7522,-137.5108,279.26,72,100,1.97,CA,1631646446
397,General Roca,-39.0333,-67.5833,289.54,23,0,9.63,AR,1631646107
398,Alekseyevsk,57.8406,108.3492,275.63,97,14,1.94,RU,1631646446
399,Gijang,35.2442,129.2139,295.58,73,98,10.14,KR,1631646446
400,Araouane,18.9048,-3.5265,312.94,14,47,1.88,ML,1631646447
401,Siocon,7.7061,122.1353,299.53,80,100,0.38,PH,1631646447
402,Ballina,-28.8667,153.5667,279.25,78,77,6.19,AU,1631646221
403,Northam,51.0333,-4.2167,290.74,92,10,1.73,GB,1631646447
404,Yuza,39.0,139.9167,289.94,88,1,1.41,JP,1631646448
405,Gaza,31.5,34.4667,300.14,65,0,3.53,PS,1631646448
406,Homer,59.6425,-151.5483,281.37,83,90,2.06,US,1631646448
407,Palera,25.0167,79.2333,297.65,94,71,4.87,IN,1631646448
408,Sioux Lookout,50.1001,-91.917,292.49,47,0,5.07,CA,1631646449
409,Hīt,33.6416,42.8251,303.74,19,0,4.48,IQ,1631646449
410,Bad Kissingen,50.2,10.0833,294.04,81,97,0.6,DE,1631646449
411,Pietermaritzburg,-29.6168,30.3928,290.75,34,67,1.82,ZA,1631646450
412,Constitución,-35.3333,-72.4167,287.12,52,0,8.46,CL,1631646226
413,Mopipi,-21.1833,24.8833,298.34,16,1,1.23,BW,1631646450
414,Alausí,-2.2,-78.8333,293.03,57,55,1.31,EC,1631646450
415,Chui,-33.6971,-53.4616,287.59,71,33,6.87,UY,1631646218
416,Lufilufi,-13.8745,-171.5986,300.42,77,26,8.81,WS,1631646451
417,San Vicente,-26.6167,-54.1333,290.69,98,100,2.13,AR,1631646237
418,Gizo Government Station,-8.103,156.8419,300.38,81,100,5.66,SB,1631646452
419,Zaton,53.2936,83.8072,282.92,76,100,2.0,RU,1631646452
420,Khovd,48.0056,91.6419,284.48,39,4,3.09,MN,1631646452
421,Huayucachi,-12.1333,-75.2333,292.57,38,87,2.53,PE,1631646452
422,Severnyy,50.677,36.5532,289.17,72,0,4.0,RU,1631646453
423,Isabela,6.7085,121.9711,299.14,80,94,0.79,PH,1631646453
424,Palmer,42.1584,-72.3287,297.61,67,78,0.45,US,1631646453
425,Riyadh,24.6877,46.7219,303.91,16,7,5.69,SA,1631646109
426,Binga,-17.6203,27.3414,297.68,41,5,0.66,ZW,1631646454
427,Sept-Îles,50.2001,-66.3821,287.18,42,17,2.68,CA,1631646454
428,Ajdabiya,30.7554,20.2263,298.84,58,0,7.55,LY,1631646455
429,Sarangani,5.4033,125.4636,301.09,76,100,5.17,PH,1631646455
430,Saldanha,-33.0117,17.9442,286.7,66,99,7.4,ZA,1631646216
431,Muzhi,65.3667,64.6667,278.35,86,100,2.5,RU,1631646455
432,Avera,33.194,-82.5271,305.21,29,19,1.79,US,1631646457
433,Zhangjiakou Shi Xuanhua Qu,40.6103,115.0447,290.62,86,100,2.87,CN,1631646457
434,Los Zacatones,22.95,-102.05,295.73,44,70,2.56,MX,1631646237
435,Havre-St-Pierre,50.2334,-63.5986,285.46,44,20,3.4,CA,1631646457
436,Tskaltubo,42.3254,42.5979,293.67,94,75,0.51,GE,1631646458
437,Tambun,-6.2641,107.0712,297.09,81,100,1.55,ID,1631646458
438,Yulara,-25.2406,130.9889,288.31,38,0,3.67,AU,1631646109
439,San Blas,21.5167,-105.2667,300.09,93,100,0.41,MX,1631646459
440,Sabancuy,18.9667,-91.1833,305.86,53,100,1.67,MX,1631646459
441,Maragogi,-9.0122,-35.2225,299.21,77,31,4.71,BR,1631646188
442,Madoc,44.5084,-77.4745,296.36,69,100,4.18,CA,1631646459
443,Kruisfontein,-34.0033,24.7314,286.97,86,95,5.73,ZA,1631646214
444,Ocampo,21.65,-101.5,293.75,59,93,1.72,MX,1631646469
445,Vestmanna,62.1564,-7.1664,283.66,100,90,1.03,FO,1631646469
446,Dingle,10.9995,122.6711,298.21,86,100,2.36,PH,1631646469
447,Tabou,4.423,-7.3528,298.54,87,86,3.63,CI,1631646469
448,Berdigestyakh,62.0989,126.6992,279.19,91,100,1.75,RU,1631646470
449,Loreto,22.2667,-101.9667,295.89,52,79,1.87,MX,1631646470
450,Redmond,47.674,-122.1215,296.04,64,92,0.45,US,1631646078
451,City of San Pedro,14.35,121.0167,299.99,84,97,1.4,PH,1631646471
452,Kieta,-6.2167,155.6333,298.75,83,100,3.49,PG,1631646471
453,Lüderitz,-26.6481,15.1594,285.86,69,0,10.02,NA,1631646168
454,Okotoks,50.7289,-113.9828,294.43,31,100,1.34,CA,1631646472
455,Velasco Ibarra,-1.05,-79.6167,301.68,62,82,0.91,EC,1631646472
456,Viña del Mar,-33.0246,-71.5518,294.86,48,0,7.72,CL,1631646472
457,Oddur,4.1213,43.8894,299.05,60,100,8.39,SO,1631646473
458,Russell,32.3502,-85.1999,306.46,54,1,2.06,US,1631646169
459,Grand-Santi,4.25,-54.3833,307.88,35,73,1.37,GF,1631646473
460,Seeboden,46.8219,13.495,293.18,88,41,1.69,AT,1631646474
461,Jinji,23.2281,110.8261,298.52,91,41,0.34,CN,1631646474
462,Ishim,56.1128,69.4902,285.68,84,100,3.75,RU,1631646475
463,Beian,63.6559,9.5683,283.71,87,0,3.09,NO,1631646475
464,Caravelas,-17.7125,-39.2481,299.58,66,4,5.19,BR,1631646475
465,São Miguel do Araguaia,-13.275,-50.1628,311.95,12,77,3.4,BR,1631646476
466,Asunción,-25.3007,-57.6359,293.84,83,75,7.2,PY,1631646476
467,Bullhead City,35.1478,-114.5683,314.32,10,1,3.09,US,1631646437
468,Chatrapur,19.35,84.9833,301.14,87,100,7.19,IN,1631646476
469,Micoud,13.8167,-60.9,304.14,73,7,5.41,LC,1631646477
470,Monteagudo,-19.8167,-63.9833,292.82,59,100,1.0,BO,1631646477
471,Naples,40.8333,14.25,298.06,80,0,1.03,IT,1631646477
472,Padrauna,26.9025,83.9819,298.66,85,100,8.01,IN,1631646478
473,Dzhebariki-Khaya,62.2167,135.8,283.03,98,100,1.88,RU,1631646478
474,Kangaatsiaq,68.3065,-53.4641,274.55,77,46,3.32,GL,1631646478
475,Bonavista,48.6499,-53.1147,286.03,88,100,4.74,CA,1631646478
476,Barão de Melgaço,-16.1944,-55.9675,306.64,34,98,3.14,BR,1631646134
477,Worthington,40.0931,-83.018,305.47,55,40,0.89,US,1631646479
478,Liverpool,53.4106,-2.9779,289.64,82,20,2.57,GB,1631645979
479,Bredy,52.4153,60.3411,288.16,50,100,2.95,RU,1631646479
480,Desbiens,48.4178,-71.9495,288.55,52,100,0.76,CA,1631646480
481,Toktogul,41.8708,72.9402,291.91,32,0,0.18,KG,1631646480
482,Magadan,59.5667,150.8,280.57,68,20,2.55,RU,1631646480
483,Ciudad de Allende,25.2833,-100.0167,309.12,45,61,3.43,MX,1631646481
484,Klyuchi,52.2667,79.1667,287.09,48,61,5.25,RU,1631646481
485,Onega,63.9061,38.1404,280.46,84,100,4.54,RU,1631646481
486,High Rock,26.6208,-78.2833,302.16,68,53,4.12,BS,1631646481
487,Gorom-Gorom,14.4439,-0.2361,308.46,34,10,1.79,BF,1631646482
488,Nixa,37.0434,-93.2944,304.94,56,24,0.45,US,1631646242
489,Kidodi,-7.6036,37.0044,296.99,58,12,2.05,TZ,1631646483
490,Pangai,-19.8,-174.35,298.21,83,40,4.63,TO,1631646483
491,Nosy Varika,-20.5833,48.5333,293.36,89,9,3.13,MG,1631646484
492,Komatsu,36.4026,136.4509,293.83,83,60,2.63,JP,1631646484
493,Paita,-5.0892,-81.1144,297.46,69,7,7.53,PE,1631646485
494,Bilma,18.6853,12.9164,309.34,17,0,1.81,NE,1631646485
495,Manicoré,-5.8092,-61.3003,308.08,38,98,0.71,BR,1631646485
496,Sibolga,1.7427,98.7792,298.56,77,100,1.34,ID,1631646486
497,Carthage,36.8611,10.3316,299.89,65,20,5.14,TN,1631646486
498,Longhua,23.6137,114.1919,299.24,86,81,0.8,CN,1631646487
499,Gwadar,25.1216,62.3254,301.0,73,100,2.25,PK,1631646487
500,Kuandian,40.7286,124.7847,284.83,84,100,2.16,CN,1631646487
501,Oktyabr'skiy,54.4815,53.471,290.18,62,93,5.07,RU,1631646488
502,San-Pédro,4.7485,-6.6363,297.63,92,39,2.49,CI,1631646489
503,‘Āhuimanu,21.4447,-157.8378,301.99,68,40,6.17,US,1631646489
504,The Valley,18.217,-63.0578,302.65,79,100,5.54,AI,1631646168
505,Yining,29.0361,114.5636,294.9,95,66,0.9,CN,1631646490
506,Biak,-0.9131,122.8766,296.39,93,100,3.48,ID,1631646491
507,College,64.8569,-147.8028,281.96,76,20,0.0,US,1631646491
508,Wagar,16.1525,36.2032,304.39,52,100,7.51,SD,1631646491
509,Camacha,33.0833,-16.3333,295.83,69,40,6.17,PT,1631646494
510,Khandyga,62.6667,135.6,282.99,98,97,1.21,RU,1631646063
511,Ocean City,39.2776,-74.5746,304.42,79,100,1.34,US,1631646494
512,Kautokeino,69.0125,23.0412,276.25,92,100,2.68,NO,1631646495
513,Hryshkivtsi,49.9353,28.6038,288.63,73,80,2.47,UA,1631646495
514,Rocha,-34.4833,-54.3333,286.31,67,0,8.13,UY,1631646495
515,Te Anau,-45.4167,167.7167,270.41,96,53,0.46,NZ,1631646496
516,Semey,50.4111,80.2275,286.62,33,6,3.65,KZ,1631646496
517,Šalčininkai,54.3,25.3833,281.43,67,100,1.59,LT,1631646497
518,Iisalmi,63.5592,27.1907,278.16,99,100,2.61,FI,1631646497
519,Udachny,66.4167,112.4,279.56,76,100,0.36,RU,1631646498
520,Sūsangerd,31.5608,48.1831,309.16,15,0,4.94,IR,1631646498
521,Kirksville,40.1948,-92.5833,301.12,65,40,5.66,US,1631646499
522,Adrar,20.5022,-10.0711,311.01,12,6,5.32,MR,1631646067
523,Galle,6.0367,80.217,299.27,87,81,3.36,LK,1631646499
524,Lumphat,13.4878,106.9816,296.33,99,100,0.44,KH,1631646500
525,Hatfield,51.7634,-0.2242,291.64,95,90,3.6,GB,1631646500
526,Port Hedland,-20.3167,118.5667,290.18,94,45,2.06,AU,1631646150
527,Saint-Michel-des-Saints,46.6834,-73.9159,291.15,47,95,4.2,CA,1631646501
528,Pedasí,7.5333,-80.0333,300.88,72,41,2.16,PA,1631646501
529,Husavik,66.0449,-17.3389,283.6,61,85,6.13,IS,1631646502
530,Aykhal,66.0,111.5,278.25,76,100,1.87,RU,1631646502
531,Vidim,56.4088,103.1106,276.71,93,100,2.33,RU,1631646503
532,Guasdualito,7.2424,-70.7324,304.78,58,39,2.96,VE,1631646504
533,Daru,-9.0763,143.2092,298.43,91,97,5.46,PG,1631646504
534,Kartaly,53.0522,60.6467,287.16,52,98,3.22,RU,1631646505
535,Carballo,43.213,-8.691,294.83,97,32,1.12,ES,1631646505
536,Coyhaique,-45.5752,-72.0662,283.49,76,90,3.6,CL,1631646442
537,Rawson,-43.3002,-65.1023,288.99,30,1,9.54,AR,1631646506
538,Hammerfest,70.6634,23.6821,278.4,87,75,2.57,NO,1631646506
539,Santa Lucía,27.9117,-15.5407,294.77,75,40,7.72,ES,1631646506
540,Telč,49.1842,15.4528,291.09,90,0,1.34,CZ,1631646507
541,Potosí,-19.5836,-65.7531,291.23,7,8,8.61,BO,1631646322
542,Ende,-8.8432,121.6623,297.71,86,87,0.28,ID,1631646507
543,Egvekinot,66.3167,-179.1667,272.21,71,66,2.47,RU,1631646508
544,Bahía Solano,6.2262,-77.4044,300.65,76,94,3.32,CO,1631646508
545,Shangrao,28.4532,117.9686,295.8,94,18,0.36,CN,1631646508
546,Pīpri,19.8,75.5333,296.52,89,100,3.64,IN,1631646509
547,Kununurra,-15.7667,128.7333,298.14,69,13,3.6,AU,1631646509
548,Livingstonia,-10.606,34.1063,291.44,60,100,1.24,MW,1631646509
